ExampleInput/Access_Summary.txt

Satellite GEO LOS Access File Created: 14-Feb-2016 11:20:54 
Satellite ID: 38782 
 
Viewer location: 0.0000 Lat,   0.0000 Lon,    0.0 m geodetic 
 
All times UTC

-----------------  Pass Summary -- GEO LOS  ------------------
Access  1 
	 01-Jan-2016 00:17:30 
	 01-Jan-2016 00:23:00 
	 Access duration is   5.50 minutes 
	 Max elevation is is 2.9 degs 
Access  2 
	 01-Jan-2016 09:16:30 
	 01-Jan-2016 09:20:30 
	 Access duration is   4.00 minutes 
	 Max elevation is is 1.4 degs 
Access  3 
	 01-Jan-2016 10:48:00 
	 01-Jan-2016 11:01:00 
	 Access duration is  13.00 minutes 
	 Max elevation is is 85.0 degs 
Access  4 
	 01-Jan-2016 12:29:30 
	 01-Jan-2016 12:32:00 
	 Access duration is   2.50 minutes 
	 Max elevation is is 0.7 degs 
Access  5 
	 01-Jan-2016 21:26:00 
	 01-Jan-2016 21:32:00 
	 Access duration is   6.00 minutes 
	 Max elevation is is 3.6 degs 
Access  6 
	 01-Jan-2016 22:59:00 
	 01-Jan-2016 23:11:00 
	 Access duration is  12.00 minutes 
	 Max elevation is 59.7 degs 

-----------  Elevation, Slant Range, Azimuth Summary  --------

            DATE        El(deg)  Slant R(km)     Az(degT) 
--------------------------------------------------------------
Access  1 
01-Jan-2016 00:17:30 	 0.34 	  2852.46 	 230.040 
01-Jan-2016 00:18:00 	 1.10 	  2768.73 	 234.323 
01-Jan-2016 00:18:30 	 1.75 	  2698.90 	 238.853 
01-Jan-2016 00:19:00 	 2.28 	  2644.15 	 243.601 
01-Jan-2016 00:19:30 	 2.65 	  2605.45 	 248.523 
01-Jan-2016 00:20:00 	 2.86 	  2583.55 	 253.563 
01-Jan-2016 00:20:30 	 2.89 	  2578.87 	 258.657 
01-Jan-2016 00:21:00 	 2.75 	  2591.50 	 263.734 
01-Jan-2016 00:21:30 	 2.45 	  2621.14 	 268.727 
01-Jan-2016 00:22:00 	 1.98 	  2667.16 	 273.576 
01-Jan-2016 00:22:30 	 1.38 	  2728.68 	 278.231 
01-Jan-2016 00:23:00 	 0.66 	  2804.57 	 282.655 

Access  2 
01-Jan-2016 09:16:30 	 0.10 	  2936.19 	 83.813 
01-Jan-2016 09:17:00 	 0.61 	  2881.29 	 88.149 
01-Jan-2016 09:17:30 	 1.00 	  2840.55 	 92.633 
01-Jan-2016 09:18:00 	 1.25 	  2814.64 	 97.224 
01-Jan-2016 09:18:30 	 1.36 	  2804.04 	 101.875 
01-Jan-2016 09:19:00 	 1.33 	  2808.95 	 106.536 
01-Jan-2016 09:19:30 	 1.14 	  2829.31 	 111.155 
01-Jan-2016 09:20:00 	 0.82 	  2864.80 	 115.683 
01-Jan-2016 09:20:30 	 0.37 	  2914.85 	 120.076 

Access  3 
01-Jan-2016 10:48:00 	 0.11 	  2919.10 	 10.837 
01-Jan-2016 10:48:30 	 2.07 	  2711.82 	 10.809 
01-Jan-2016 10:49:00 	 4.19 	  2504.84 	 10.769 
01-Jan-2016 10:49:30 	 6.54 	  2298.48 	 10.712 
01-Jan-2016 10:50:00 	 9.15 	  2093.18 	 10.634 
01-Jan-2016 10:50:30 	 12.14 	  1889.53 	 10.529 
01-Jan-2016 10:51:00 	 15.61 	  1688.40 	 10.386 
01-Jan-2016 10:51:30 	 19.76 	  1491.05 	 10.189 
01-Jan-2016 10:52:00 	 24.88 	  1299.45 	  9.907 
01-Jan-2016 10:52:30 	 31.40 	  1116.84 	  9.482 
01-Jan-2016 10:53:00 	 39.99 	   948.64 	  8.781 
01-Jan-2016 10:53:30 	 51.58 	   804.19 	  7.433 
01-Jan-2016 10:54:00 	 67.00 	   698.55 	  3.826 
01-Jan-2016 10:54:30 	 85.03 	   651.02 	 329.866 
01-Jan-2016 10:55:00 	 73.61 	   674.05 	 203.156 
01-Jan-2016 10:55:30 	 56.85 	   761.22 	 196.922 
01-Jan-2016 10:56:00 	 43.97 	   893.88 	 195.077 
01-Jan-2016 10:56:30 	 34.43 	  1054.89 	 194.189 
01-Jan-2016 10:57:00 	 27.26 	  1233.04 	 193.662 
01-Jan-2016 10:57:30 	 21.71 	  1421.74 	 193.308 
01-Jan-2016 10:58:00 	 17.26 	  1617.14 	 193.050 
01-Jan-2016 10:58:30 	 13.57 	  1816.88 	 192.851 
01-Jan-2016 10:59:00 	 10.43 	  2019.51 	 192.688 
01-Jan-2016 10:59:30 	 7.70 	  2224.03 	 192.551 
01-Jan-2016 11:00:00 	 5.27 	  2429.77 	 192.431 
01-Jan-2016 11:00:30 	 3.07 	  2636.25 	 192.324 
01-Jan-2016 11:01:00 	 1.06 	  2843.10 	 192.225 

Access  4 
01-Jan-2016 12:29:30 	 0.34 	  2905.47 	 292.614 
01-Jan-2016 12:30:00 	 0.58 	  2880.69 	 288.123 
01-Jan-2016 12:30:30 	 0.68 	  2870.89 	 283.577 
01-Jan-2016 12:31:00 	 0.65 	  2876.21 	 279.025 
01-Jan-2016 12:31:30 	 0.47 	  2896.53 	 274.513 
01-Jan-2016 12:32:00 	 0.16 	  2931.48 	 270.086 

Access  5 
01-Jan-2016 21:26:00 	 0.63 	  2814.57 	 106.973 
01-Jan-2016 21:26:30 	 1.46 	  2724.72 	 102.688 
01-Jan-2016 21:27:00 	 2.18 	  2648.44 	 98.132 
01-Jan-2016 21:27:30 	 2.78 	  2587.05 	 93.330 
01-Jan-2016 21:28:00 	 3.23 	  2541.74 	 88.321 
01-Jan-2016 21:28:30 	 3.51 	  2513.45 	 83.162 
01-Jan-2016 21:29:00 	 3.61 	  2502.83 	 77.920 
01-Jan-2016 21:29:30 	 3.53 	  2510.15 	 72.671 
01-Jan-2016 21:30:00 	 3.26 	  2535.26 	 67.491 
01-Jan-2016 21:30:30 	 2.82 	  2577.65 	 62.452 
01-Jan-2016 21:31:00 	 2.22 	  2636.48 	 57.610 
01-Jan-2016 21:31:30 	 1.49 	  2710.64 	 53.013 
01-Jan-2016 21:32:00 	 0.66 	  2798.86 	 48.687 

Access  6 
01-Jan-2016 22:59:00 	 1.48 	  2734.26 	 175.367 
01-Jan-2016 22:59:30 	 3.52 	  2527.42 	 176.011 
01-Jan-2016 23:00:00 	 5.76 	  2321.39 	 176.783 
01-Jan-2016 23:00:30 	 8.25 	  2116.66 	 177.720 
01-Jan-2016 23:01:00 	 11.06 	  1913.89 	 178.882 
01-Jan-2016 23:01:30 	 14.30 	  1714.05 	 180.357 
01-Jan-2016 23:02:00 	 18.12 	  1518.57 	 182.286 
01-Jan-2016 23:02:30 	 22.74 	  1329.62 	 184.909 
01-Jan-2016 23:03:00 	 28.46 	  1150.67 	 188.661 
01-Jan-2016 23:03:30 	 35.63 	   987.45 	 194.408 
01-Jan-2016 23:04:00 	 44.43 	   849.29 	 204.032 
01-Jan-2016 23:04:30 	 53.93 	   750.34 	 221.720 
01-Jan-2016 23:05:00 	 59.72 	   707.39 	 252.816 
01-Jan-2016 23:05:30 	 56.32 	   730.43 	 287.092 
01-Jan-2016 23:06:00 	 47.21 	   813.85 	 308.401 
01-Jan-2016 23:06:30 	 37.96 	   941.66 	 319.842 
01-Jan-2016 23:07:00 	 30.27 	  1098.36 	 326.487 
01-Jan-2016 23:07:30 	 24.14 	  1273.19 	 330.733 
01-Jan-2016 23:08:00 	 19.22 	  1459.49 	 333.660 
01-Jan-2016 23:08:30 	 15.18 	  1653.21 	 335.797 
01-Jan-2016 23:09:00 	 11.77 	  1851.86 	 337.428 
01-Jan-2016 23:09:30 	 8.84 	  2053.81 	 338.717 
01-Jan-2016 23:10:00 	 6.26 	  2257.98 	 339.764 
01-Jan-2016 23:10:30 	 3.95 	  2463.62 	 340.636 
01-Jan-2016 23:11:00 	 1.85 	  2670.20 	 341.377 
