ExampleOutput/Access_Summary.txt

Satellite GEO LOS Access File Created: 30-Jan-2016 16:18:08 
Satellite ID: 41240 
 
Viewer location: 22.0000 Lat, -159.0000 Lon,  450.0 m geodetic 
 
Sector Max El (degs): 80.0 
Sector Min El (degs): 20.0 
Sector Left (degsT): 0.0 
Sector Right (degsT): 360.0 
 
All times UTC

-----------------  Pass Summary -- GEO LOS  ------------------
Access  1 
	          01-Jan-2016 
	 01-Jan-2016 00:03:00 
	 Access duration is   3.00 minutes 
	 Max elevation is is 27.5 degs 
Access  2 
	 01-Jan-2016 01:51:00 
	 01-Jan-2016 02:00:00 
	 Access duration is   9.00 minutes 
	 Max elevation is is 46.1 degs 
Access  3 
	 01-Jan-2016 14:11:00 
	 01-Jan-2016 14:22:00 
	 Access duration is  11.00 minutes 
	 Max elevation is 72.8 degs 

-----------  Elevation, Slant Range, Azimuth Summary  --------

            DATE        El(deg)  Slant R(km)     Az(degT) 
--------------------------------------------------------------
Access  1 
         01-Jan-2016 	 27.46 	  2268.49 	 58.444 
01-Jan-2016 00:01:00 	 26.88 	  2292.78 	 70.260 
01-Jan-2016 00:02:00 	 25.03 	  2375.56 	 81.306 
01-Jan-2016 00:03:00 	 22.29 	  2510.96 	 91.028 

Access  2 
01-Jan-2016 01:51:00 	 24.93 	  2384.18 	 309.649 
01-Jan-2016 01:52:00 	 30.82 	  2132.91 	 302.661 
01-Jan-2016 01:53:00 	 37.02 	  1923.74 	 292.748 
01-Jan-2016 01:54:00 	 42.67 	  1772.29 	 278.702 
01-Jan-2016 01:55:00 	 46.11 	  1694.57 	 260.170 
01-Jan-2016 01:56:00 	 45.75 	  1700.90 	 239.729 
01-Jan-2016 01:57:00 	 41.78 	  1790.31 	 221.830 
01-Jan-2016 01:58:00 	 35.92 	  1951.10 	 208.492 
01-Jan-2016 01:59:00 	 29.71 	  2166.99 	 199.087 
01-Jan-2016 02:00:00 	 23.88 	  2422.66 	 192.403 

Access  3 
01-Jan-2016 14:11:00 	 25.03 	  2384.46 	 190.099 
01-Jan-2016 14:12:00 	 32.28 	  2086.36 	 187.611 
01-Jan-2016 14:13:00 	 41.21 	  1817.58 	 183.657 
01-Jan-2016 14:14:00 	 52.11 	  1594.07 	 176.475 
01-Jan-2016 14:15:00 	 64.34 	  1437.89 	 160.463 
01-Jan-2016 14:16:00 	 72.78 	  1372.76 	 118.714 
01-Jan-2016 14:17:00 	 67.44 	  1411.55 	 68.787 
01-Jan-2016 14:18:00 	 55.41 	  1546.34 	 48.102 
01-Jan-2016 14:19:00 	 44.03 	  1754.82 	 39.444 
01-Jan-2016 14:20:00 	 34.61 	  2013.71 	 34.928 
01-Jan-2016 14:21:00 	 26.97 	  2305.47 	 32.209 
01-Jan-2016 14:22:00 	 20.69 	  2618.39 	 30.418 
